[
    {
        "name": "McDonald's",
        "address": "515 6th StNew Westminster, BC V3L 3B9",
        "lat": "49.212271",
        "long": "-122.918816",
        "phone_no": "(604) 718-1172"
    },
    {
        "name": "Indian Bombay Bistro",
        "address": " 7558 6th St, Burnaby, BC V3N 3M3",
        "lat": "49.223155",
        "long": "-122.932605",
        "phone_no": " (604) 553-1719"
    },
    {
        "name": "Manjal South Indian Kitchen",
        "address": "7613 Edmonds St, Burnaby, BC V3N 1B6",
        "lat": "49.223281",
        "long": "-122.943316",
        "phone_no": " (604) 515-4230"
    },
    {
        "name": "Bubble World",
        "address": "601 Agnes St, New Westminster, BC V3M 1G9",
        "lat": "49.204826",
        "long": "-122.910192",
        "phone_no": "(778) 397-7800"
    },
    {
        "name": "Miku Vancouver",
        "address": " 200 Granville St # 70, Vancouver, BC V6C 1S4",
        "lat": "49.286826",
        "long": "-123.112584",
        "phone_no": "(604) 568-3900"
    },
    {
        "name": "Banh Mi Bar",
        "address": "722 Carnarvon St, New Westminster, BC V3M 6V4",
        "lat": "49.202816",
        "long": "-122.911051",
        "phone_no": "(604) 553-9966"
    },
    {
        "name": "De Dutch Pannekoek House",
        "address": "1035 Columbia St #102, New Westminster, BC V3M 1C4",
        "lat": "49.200451",
        "long": "-122.917861",
        "phone_no": "(604) 521-2288"
    },
    {
        "name": "Pizza Hut",
        "address": "7515 Market Crossing #170, Burnaby, BC V5J 0A3",
        "lat": "49.198050",
        "long": "-122.978744",
        "phone_no": " (604) 433-8424"
    },
    {
        "name": "Donair & Sub House",
        "address": "7634 6th St, Burnaby, BC V3N 3M5",
        "lat": "49.222195",
        "long": "-122.931487",
        "phone_no": "(604) 525-5108"
    },
    {
        "name": "Subway",
        "address": "7155 Kingsway Suite# 110, Burnaby, BC V5E 2V1",
        "lat": "49.218681",
        "long": "-122.956770",
        "phone_no": "(604) 759-0016"
    }
]
